{"html_attributions": [], "results": [{"business_status": "OPERATIONAL", "formatted_address": "81375 Munich, Germany", "geometry": {"location": {"lat": 48.0985132, "lng": 11.5237135}, "viewport": {"northeast": {"lat": 48.09977125, "lng": 11.52793415}, "southwest": {"lat": 48.09658505, "lng": 11.52219915}}}, "icon": "https://maps.gstatic.com/mapfiles/place_api/icons/v1/png_71/generic_business-71.png", "icon_background_color": "#7B9EB0", "icon_mask_base_uri": "https://maps.gstatic.com/mapfiles/place_api/icons/v2/generic_pinlet", "name": "Aidenbachstra\u00dfe", "photos": [{"height": 3024, "html_attributions": ["<a href=\"https://maps.google.com/maps/contrib/112621155570028256191\">MatGat</a>"], "photo_reference": "AZose0myDe4VDz4vtuul3_4t3HHFNzn_S7f_OgdmgnZonLLTJDgPFBpAihTJ-2nwHHpKPJodEti5nG7WqH3Ho4SpgfpFVqQGQmXWKR-GVS1uax0o9h0gdZekJkPjFytD7ONhzvhjL9CHdgArm_GOq1_PvFDIKoo64G4PiPX_URPLTHthyxIr", "width": 4032}], "place_id": "ChIJc0iIvinZnUcRw360pLN65mA", "plus_code": {"compound_code": "3GXF+CF Munich, Germany", "global_code": "8FWH3GXF+CF"}, "rating": 4, "reference": "ChIJc0iIvinZnUcRw360pLN65mA", "types": ["subway_station", "transit_station", "point_of_interest", "establishment"], "user_ratings_total": 42}, {"business_status": "OPERATIONAL", "formatted_address": "81379 Munich, Germany", "geometry": {"location": {"lat": 48.0979097, "lng": 11.5251695}, "viewport": {"northeast": {"lat": 48.09922657989271, "lng": 11.52652287989272}, "southwest": {"lat": 48.09652692010727, "lng": 11.52382322010728}}}, "icon": "https://maps.gstatic.com/mapfiles/place_api/icons/v1/png_71/generic_business-71.png", "icon_background_color": "#7B9EB0", "icon_mask_base_uri": "https://maps.gstatic.com/mapfiles/place_api/icons/v2/generic_pinlet", "name": "U-Bahnhof Aidenbachstra\u00dfe", "photos": [{"height": 4032, "html_attributions": ["<a href=\"https://maps.google.com/maps/contrib/103471787261500156627\">Michaela Smykalla</a>"], "photo_reference": "AZose0mZVc7h8A5px7H7N0ru0sfsTPD5cVWBqECP018LDJC7dtrLXewty-Qe62egH8ZCwn8lVbqQ6UMKtP-Qk90yTro6TjN3hnaZ9QEU_g-BGQxNgHrWrFtlLHtOaXE9EHx88Zfip89yfimOHxJ6ws4mNrnvMwvb0LAHXNGfmYlYgQr1_G28", "width": 3024}], "place_id": "ChIJRytAjinZnUcRp63oeD6MeOE", "plus_code": {"compound_code": "3GXG+53 Munich, Germany", "global_code": "8FWH3GXG+53"}, "rating": 2.9, "reference": "ChIJRytAjinZnUcRp63oeD6MeOE", "types": ["transit_station", "point_of_interest", "establishment"], "user_ratings_total": 8}, {"business_status": "OPERATIONAL", "formatted_address": "Gmunder Str. 40, 81379 M\u00fcnchen, Germany", "geometry": {"location": {"lat": 48.0974574, "lng": 11.5245227}, "viewport": {"northeast": {"lat": 48.09880867989272, "lng": 11.52583887989272}, "southwest": {"lat": 48.09610902010728, "lng": 11.52313922010728}}}, "icon": "https://maps.gstatic.com/mapfiles/place_api/icons/v1/png_71/parking-71.png", "icon_background_color": "#7B9EB0", "icon_mask_base_uri": "https://maps.gstatic.com/mapfiles/place_api/icons/v2/parking_pinlet", "name": "P+R Parkdeck Aidenbachstra\u00dfe", "opening_hours": {"open_now": true}, "photos": [{"height": 2048, "html_attributions": ["<a href=\"https://maps.google.com/maps/contrib/112444324187028291293\">Christian h\u00f6nig</a>"], "photo_reference": "AZose0mhEa1vlm-oO5NlEXrwpNT9il9_DjOx8WFJ2fK79VcL33M5G9mWxEW6T0GQa0kUFr-z_te718s1CbA6fp-XUY-4UF1UWRFVnTbiF1Qws084H8AhDi_Jm3Tqi79mtDWOTRxgTb2ADfFZwpyzgdIpJvTDfHYc0VwMy1R8s3X9StteTsiY", "width": 1059}], "place_id": "ChIJbaD7mynZnUcRpkP27cfXHfo", "plus_code": {"compound_code": "3GWF+XQ Munich, Germany", "global_code": "8FWH3GWF+XQ"}, "rating": 4.2, "reference": "ChIJbaD7mynZnUcRpkP27cfXHfo", "types": ["parking", "point_of_interest", "establishment"], "user_ratings_total": 58}], "status": "OK"}